{
  "_nota": "Embalses monitorizados. Generado/ampliable con `npm run harvest` (cosecha del SAIH) o a mano. El token `saih.token` es el parámetro `x` de la URL de la estación en saihtajo.chtajo.es (público; puede rotar → re-cosechar). `comunidad` decide si aplica la veda parseada (solo Madrid).",
  "sites": [
    {
      "slug": "alcantara",
      "nombre": "ALCÁNTARA",
      "lat": 39.72597,
      "lon": -6.87972,
      "capacidad_hm3": 3162,
      "rio": "BAJO TAJO",
      "cuenca": "Tajo",
      "confederacion": "CHTajo",
      "municipio_presa": "Alcántara",
      "provincia": "Cáceres",
      "comunidad": "Extremadura",
      "timezone": "Europe/Madrid",
      "saih": {
        "estacion": "E_45",
        "token": "%2F4ZGs%2B6M%2BZWfvq6%2Fyxpbhbs9rnU6A29ZzIhFMHDeW6qoostRIzIRNu63iHkaBc3NLRgSRPkRAbV2CCXj2O6yLQvIjXQOxZQbja9srYOMuys%3D",
        "lat": 39.72597,
        "lon": -6.87972,
        "z_msnm": 223
      }
    },
    {
      "slug": "alcorlo",
      "nombre": "ALCORLO",
      "lat": 41.00762,
      "lon": -3.02463,
      "capacidad_hm3": 180,
      "rio": "HENARES",
      "cuenca": "Tajo",
      "confederacion": "CHTajo",
      "municipio_presa": "Toba, La",
      "provincia": "Guadalajara",
      "comunidad": "Castilla - La Mancha",
      "timezone": "Europe/Madrid",
      "saih": {
        "estacion": "E_09",
        "token": "%2F4ZGs%2B6M%2BZWfvq6%2FyxpbhXZiXj66k5WJS8SzLqEqbfRVPAOL%2FFJraNVYpyml%2FpTwjAlOyvLw03PYZx3frj1FJpm%2FjtZC9PvGm8%2Fhfs3PwRk%3D",
        "lat": 41.00762,
        "lon": -3.02463,
        "z_msnm": 924
      }
    },
    {
      "slug": "almoguera",
      "nombre": "ALMOGUERA",
      "lat": 40.27495,
      "lon": -2.95862,
      "capacidad_hm3": 7,
      "rio": "CABECERA",
      "cuenca": "Tajo",
      "confederacion": "CHTajo",
      "municipio_presa": "Almoguera",
      "provincia": "Guadalajara",
      "comunidad": "Castilla - La Mancha",
      "timezone": "Europe/Madrid",
      "saih": {
        "estacion": "E_06",
        "token": "%2F4ZGs%2B6M%2BZWfvq6%2FyxpbhUX5JUA6v8YGANb6%2F3eAkvDgzzvqrKJsroU8iimDAYMGLaXkHl3eyi55fXklmYpTz9zekG6ksjkwvfLqyVKPteg%3D",
        "lat": 40.27495,
        "lon": -2.95862,
        "z_msnm": 587
      }
    },
    {
      "slug": "arrago-contraembalse",
      "nombre": "ÁRRAGO (Contraembalse)",
      "lat": 40.1136,
      "lon": -6.59544,
      "capacidad_hm3": 1,
      "rio": "ÁRRAGO",
      "cuenca": "Tajo",
      "confederacion": "CHTajo",
      "municipio_presa": "Gata",
      "provincia": "Cáceres",
      "comunidad": "Extremadura",
      "timezone": "Europe/Madrid",
      "saih": {
        "estacion": "E_42",
        "token": "%2F4ZGs%2B6M%2BZWfvq6%2Fyxpbhcpy2VghFewyN6Dwwi90LBrEbQls8%2FbBDVcfjWq8iY%2Bh1qm3rYI669fmaul3HX2ItAc13xo1HVG5wy8iWkRf0CA%3D",
        "lat": 40.1136,
        "lon": -6.59544,
        "z_msnm": 302
      }
    },
    {
      "slug": "atance",
      "nombre": "ATANCE",
      "lat": 41.07725,
      "lon": -2.78382,
      "capacidad_hm3": 49,
      "rio": "HENARES",
      "cuenca": "Tajo",
      "confederacion": "CHTajo",
      "municipio_presa": "Sigüenza",
      "provincia": "Guadalajara",
      "comunidad": "Castilla - La Mancha",
      "timezone": "Europe/Madrid",
      "saih": {
        "estacion": "E_48",
        "token": "%2F4ZGs%2B6M%2BZWfvq6%2FyxpbhRJM9zOyJQqYBXsvXTV0tmFR980%2FUbuJBKdpq7OUxM8ow%2BB4kr5Qds45r5%2Fzu6rBdIbQN3z14Yz%2F9QKIYPe52yY%3D",
        "lat": 41.07725,
        "lon": -2.78382,
        "z_msnm": 120
      }
    },
    {
      "slug": "azud-de-hervas",
      "nombre": "AZUD DE HERVAS",
      "lat": 40.27395,
      "lon": -5.87082,
      "rio": "ALAGÓN",
      "cuenca": "Tajo",
      "confederacion": "CHTajo",
      "municipio_presa": "Hervás",
      "provincia": "Cáceres",
      "comunidad": "Extremadura",
      "timezone": "Europe/Madrid",
      "saih": {
        "estacion": "E_65",
        "token": "%2F4ZGs%2B6M%2BZWfvq6%2FyxpbhcdDuEZLWRFltbGY1JwiYKqjSmQRZFofpxls7e%2FErTyFacU10E35Acc8wMwv1dJMDpLK0UCJ%2FlLXGhF%2FOtSz66o%3D",
        "lat": 40.27395,
        "lon": -5.87082,
        "z_msnm": 610.2
      }
    },
    {
      "slug": "azutan",
      "nombre": "AZUTÁN",
      "lat": 39.7787,
      "lon": -5.08783,
      "capacidad_hm3": 84,
      "rio": "TAJO IZQUIERDA",
      "cuenca": "Tajo",
      "confederacion": "CHTajo",
      "municipio_presa": "Azután",
      "provincia": "Toledo",
      "comunidad": "Castilla - La Mancha",
      "timezone": "Europe/Madrid",
      "saih": {
        "estacion": "E_29",
        "token": "%2F4ZGs%2B6M%2BZWfvq6%2FyxpbhUM%2BMe9Wtlv6FNgjtAGVEIADe%2FLy%2F46GRUgwqxuKHQ879DoXZT12v1E%2BqVxZoWQSGqNr9nYsXyq5TSSxcGtzJW8%3D",
        "lat": 39.7787,
        "lon": -5.08783,
        "z_msnm": 357
      }
    },
    {
      "slug": "banos",
      "nombre": "BAÑOS",
      "lat": 40.28134,
      "lon": -5.89357,
      "capacidad_hm3": 41,
      "rio": "ALAGÓN",
      "cuenca": "Tajo",
      "confederacion": "CHTajo",
      "municipio_presa": "Baños de Montemayor",
      "provincia": "Cáceres",
      "comunidad": "Extremadura",
      "timezone": "Europe/Madrid",
      "saih": {
        "estacion": "E_38",
        "token": "%2F4ZGs%2B6M%2BZWfvq6%2FyxpbhaycOdRVoeJZbkLGPdyMR8uNHv5%2FJSVqVHGnAwkbXge7QDMkNh2xIM05ZfsQI7dYFFpE3FliuPbAgHvxA3M5hq8%3D",
        "lat": 40.28134,
        "lon": -5.89357,
        "z_msnm": 611
      }
    },
    {
      "slug": "belena",
      "nombre": "BELEÑA",
      "lat": 40.93302,
      "lon": -3.19816,
      "capacidad_hm3": 53,
      "rio": "HENARES",
      "cuenca": "Tajo",
      "confederacion": "CHTajo",
      "municipio_presa": "Cogolludo",
      "provincia": "Guadalajara",
      "comunidad": "Castilla - La Mancha",
      "timezone": "Europe/Madrid",
      "saih": {
        "estacion": "E_11",
        "token": "%2F4ZGs%2B6M%2BZWfvq6%2FyxpbhQIheOwe0XwCMBFLv9y%2Bz6M10v3au0fy8902UpIpNblqb4hvROrdTlH%2FB%2BCm1bGIJUsxz24HWcdbLWvKB5LpWIY%3D",
        "lat": 40.93302,
        "lon": -3.19816,
        "z_msnm": 846
      }
    },
    {
      "slug": "bolarque",
      "nombre": "BOLARQUE",
      "lat": 40.36194,
      "lon": -2.81902,
      "capacidad_hm3": 31,
      "rio": "CABECERA",
      "cuenca": "Tajo",
      "confederacion": "CHTajo",
      "municipio_presa": "Almonacid de Zorita",
      "provincia": "Guadalajara",
      "comunidad": "Castilla - La Mancha",
      "timezone": "Europe/Madrid",
      "saih": {
        "estacion": "E_04",
        "token": "%2F4ZGs%2B6M%2BZWfvq6%2FyxpbhU9N7B39tSarng9u9RZMidlQtYUGJpCtbd63ZA34LgJTSuwZ4wAW71gFYjw30hayzb%2B5bD4nFFs3s3zhE2oCGTE%3D",
        "lat": 40.36194,
        "lon": -2.81902,
        "z_msnm": 643
      }
    },
    {
      "slug": "borbollon",
      "nombre": "BORBOLLÓN",
      "lat": 40.12574,
      "lon": -6.57811,
      "capacidad_hm3": 88,
      "rio": "ÁRRAGO",
      "cuenca": "Tajo",
      "confederacion": "CHTajo",
      "municipio_presa": "Santibáñez el Alto",
      "provincia": "Cáceres",
      "comunidad": "Extremadura",
      "timezone": "Europe/Madrid",
      "saih": {
        "estacion": "E_41",
        "token": "%2F4ZGs%2B6M%2BZWfvq6%2FyxpbhcV7FiDA7SsHudZkodMrRKNX6NeMsPjQUIA%2FI84A%2F%2F5JLEADY54BRGVtH0UsaJ%2FJtLNChv9jj%2BxPRnc7M07JMcg%3D",
        "lat": 40.12574,
        "lon": -6.57811,
        "z_msnm": 315
      }
    },
    {
      "slug": "buendia",
      "nombre": "BUENDÍA",
      "lat": 40.40069,
      "lon": -2.78389,
      "capacidad_hm3": 1705,
      "rio": "CABECERA",
      "cuenca": "Tajo",
      "confederacion": "CHTajo",
      "municipio_presa": "Buendía",
      "provincia": "Cuenca",
      "comunidad": "Castilla - La Mancha",
      "timezone": "Europe/Madrid",
      "saih": {
        "estacion": "E_03",
        "token": "%2F4ZGs%2B6M%2BZWfvq6%2FyxpbhXS37dLGnExc7PLnc6v4aWhPdWgXyLAThhlJBFJ4pMISph1M0VI08tLC07M6HIzCm1sPpgwO%2FSaMtggbdDTIBYU%3D",
        "lat": 40.40069,
        "lon": -2.78389,
        "z_msnm": 714
      }
    },
    {
      "slug": "burguillo",
      "nombre": "BURGUILLO",
      "lat": 40.42596,
      "lon": -4.53361,
      "capacidad_hm3": 198,
      "rio": "ALBERCHE",
      "cuenca": "Tajo",
      "confederacion": "CHTajo",
      "municipio_presa": "Tiemblo, El",
      "provincia": "Ávila",
      "comunidad": "Castilla y León",
      "timezone": "Europe/Madrid",
      "saih": {
        "estacion": "E_17",
        "token": "%2F4ZGs%2B6M%2BZWfvq6%2Fyxpbhfug5v6QdmEbnkcbbPUchrAQm17PljU5sk9NrV8SjdgDgOJzq4683U7RnVQ5Yw0xDKUbVFxwN%2BErTEHT6LcELhg%3D",
        "lat": 40.42596,
        "lon": -4.53361,
        "z_msnm": 730
      }
    },
    {
      "slug": "casar-de-caceres",
      "nombre": "CASAR DE CACERES",
      "lat": 39.59309,
      "lon": -0.44521,
      "rio": "BAJO TAJO",
      "cuenca": "Tajo",
      "confederacion": "CHTajo",
      "municipio_presa": "Casar de Cáceres",
      "provincia": "Cáceres",
      "comunidad": "Extremadura",
      "timezone": "Europe/Madrid",
      "saih": {
        "estacion": "E_59",
        "token": "%2F4ZGs%2B6M%2BZWfvq6%2FyxpbhezD%2Fw0wzmHX9GFEFWY6cMo4GUDY6bhQrOk%2BqdLws%2FgFLor7qK2pIeatLU9COw4T1gRRbrRPARYvW2%2FRmu0sxkk%3D",
        "lat": 39.59309,
        "lon": -0.44521,
        "z_msnm": 610.2
      }
    },
    {
      "slug": "castrejon",
      "nombre": "CASTREJÓN",
      "lat": 39.83248,
      "lon": -4.29634,
      "capacidad_hm3": 44,
      "rio": "TAJO IZQUIERDA",
      "cuenca": "Tajo",
      "confederacion": "CHTajo",
      "municipio_presa": "Puebla de Montalbán, La",
      "provincia": "Toledo",
      "comunidad": "Castilla - La Mancha",
      "timezone": "Europe/Madrid",
      "saih": {
        "estacion": "E_27",
        "token": "%2F4ZGs%2B6M%2BZWfvq6%2FyxpbhQJu8VWU5S7GtV4Yfk4XxZzpP30Y7WCIk%2BIaccD144LQeYYXWkJ2vuWeF7lMpstz4uxXFSx0L%2F4mdl6qcBt1Nac%3D",
        "lat": 39.83248,
        "lon": -4.29634,
        "z_msnm": 428
      }
    },
    {
      "slug": "cazalegas",
      "nombre": "CAZALEGAS",
      "lat": 40.01728,
      "lon": -4.70812,
      "capacidad_hm3": 7,
      "rio": "ALBERCHE",
      "cuenca": "Tajo",
      "confederacion": "CHTajo",
      "municipio_presa": "Cazalegas",
      "provincia": "Toledo",
      "comunidad": "Castilla - La Mancha",
      "timezone": "Europe/Madrid",
      "saih": {
        "estacion": "E_25",
        "token": "%2F4ZGs%2B6M%2BZWfvq6%2FyxpbhfZIzGyOZA82z%2FC3S4MiOCVQmoeIfPD4buHrSOmzPLIuM6d1amp3swb8%2BjnDTLWUgl2kdnl2WLGIOW22lTIGtk4%3D",
        "lat": 40.01728,
        "lon": -4.70812,
        "z_msnm": 386
      }
    },
    {
      "slug": "cedillo",
      "nombre": "CEDILLO",
      "lat": 39.66519,
      "lon": -7.54045,
      "capacidad_hm3": 259,
      "rio": "BAJO TAJO",
      "cuenca": "Tajo",
      "confederacion": "CHTajo",
      "municipio_presa": "Cedillo",
      "provincia": "Cáceres",
      "comunidad": "Extremadura",
      "timezone": "Europe/Madrid",
      "saih": {
        "estacion": "E_47",
        "token": "%2F4ZGs%2B6M%2BZWfvq6%2Fyxpbhc2N0qY442A%2BTT%2BRVMPZr5dC7Kptxe19YIQqRwCY113cb977e0%2FIzqD392MTK%2FRNAcad4SpPpNWTKwa5aXL4dqg%3D",
        "lat": 39.66519,
        "lon": -7.54045,
        "z_msnm": 120
      }
    },
    {
      "slug": "charco-del-cura",
      "nombre": "CHARCO DEL CURA",
      "lat": 40.42232,
      "lon": -4.50136,
      "capacidad_hm3": 3,
      "rio": "ALBERCHE",
      "cuenca": "Tajo",
      "confederacion": "CHTajo",
      "municipio_presa": "Tiemblo, El",
      "provincia": "Ávila",
      "comunidad": "Castilla y León",
      "timezone": "Europe/Madrid",
      "saih": {
        "estacion": "E_18",
        "token": "%2F4ZGs%2B6M%2BZWfvq6%2FyxpbhcUvFn1hD938d6Di3gXW7yfOeOW5rG0ghJNKOfdIjAG98zC%2FCe6w858m2EylL9aEzSEWTfIdsX19FXCug68u47k%3D",
        "lat": 40.42232,
        "lon": -4.50136,
        "z_msnm": 651
      }
    },
    {
      "slug": "del-rey",
      "nombre": "DEL REY",
      "lat": 40.29867,
      "lon": -3.54301,
      "rio": "MADRID",
      "cuenca": "Tajo",
      "confederacion": "CHTajo",
      "municipio_presa": "Rivas-Vaciamadrid",
      "provincia": "Madrid",
      "comunidad": "Madrid",
      "timezone": "Europe/Madrid",
      "saih": {
        "estacion": "E_22",
        "token": "%2F4ZGs%2B6M%2BZWfvq6%2Fyxpbhavc%2FUxvHEuYI%2BllAQHb1GAaZqh7tHpbWIE%2BgKI50nTnwhaTt0iH8H6dzr7chALY%2BnZEaOLJ8VaAuEa0LqZP3Qk%3D",
        "lat": 40.29867,
        "lon": -3.54301,
        "z_msnm": 500
      }
    },
    {
      "slug": "el-atazar",
      "nombre": "EL ATAZAR",
      "lat": 40.9135,
      "lon": -3.471,
      "capacidad_hm3": 426,
      "rio": "MADRID",
      "cuenca": "Tajo",
      "confederacion": "CHTajo",
      "municipio_presa": "Atazar, El",
      "provincia": "Madrid",
      "comunidad": "Madrid",
      "timezone": "Europe/Madrid",
      "saih": {
        "estacion": "E_14",
        "token": "%2F4ZGs%2B6M%2BZWfvq6%2FyxpbhfuBQQtK3J4umkpYtGoaVgLWZkfEDqgLppsIHYz5hPO%2BYGzf%2Fj37sfXC0x22BNY%2BEIW3nGEoT3iJGOqBHjJv81A%3D",
        "lat": 40.9135,
        "lon": -3.471,
        "z_msnm": 873
      }
    },
    {
      "slug": "el-castro",
      "nombre": "EL CASTRO",
      "lat": 39.80592,
      "lon": -3.75206,
      "capacidad_hm3": 8,
      "rio": "TAJO IZQUIERDA",
      "cuenca": "Tajo",
      "confederacion": "CHTajo",
      "municipio_presa": "Villamuelas",
      "provincia": "Toledo",
      "comunidad": "Castilla - La Mancha",
      "timezone": "Europe/Madrid",
      "saih": {
        "estacion": "E_24",
        "token": "%2F4ZGs%2B6M%2BZWfvq6%2FyxpbhZsDVQN6K9MU4845i5WysS2VIUnvg5YP1Uf4FBW077POj9U7mvOVKQ88L%2BMnVgrwd22HzamdYj4cmla6%2B4OOujg%3D",
        "lat": 39.80592,
        "lon": -3.75206,
        "z_msnm": 556
      }
    },
    {
      "slug": "el-pardo",
      "nombre": "EL PARDO",
      "lat": 40.53858,
      "lon": -3.78547,
      "capacidad_hm3": 43,
      "rio": "MADRID",
      "cuenca": "Tajo",
      "confederacion": "CHTajo",
      "municipio_presa": "Madrid",
      "provincia": "Madrid",
      "comunidad": "Madrid",
      "timezone": "Europe/Madrid",
      "saih": {
        "estacion": "E_21",
        "token": "%2F4ZGs%2B6M%2BZWfvq6%2FyxpbhWtNgdE3sB7aZQdXBE64z90zA1GEi%2FJoMl7JjgQob5Vg0nOejIy4PpLZ3uYCnK5hqm7HcvFR2wL1v0sSgt6NI7c%3D",
        "lat": 40.53858,
        "lon": -3.78547,
        "z_msnm": 632
      }
    },
    {
      "slug": "el-torcon",
      "nombre": "EL TORCON",
      "lat": 39.62542,
      "lon": -4.38584,
      "capacidad_hm3": 7,
      "rio": "TAJO IZQUIERDA",
      "cuenca": "Tajo",
      "confederacion": "CHTajo",
      "municipio_presa": "Menasalbas",
      "provincia": "Toledo",
      "comunidad": "Castilla - La Mancha",
      "timezone": "Europe/Madrid",
      "saih": {
        "estacion": "E_28",
        "token": "%2F4ZGs%2B6M%2BZWfvq6%2FyxpbhUogZRyuHP8%2BY9bNUD1Q1ffFYNrveB7lpjVJMXzDo8lvBxhLl6626CmBOfw50G5uBOv0iTCuM6%2BVE0Va%2B%2FudQh8%3D",
        "lat": 39.62542,
        "lon": -4.38584,
        "z_msnm": 701
      }
    },
    {
      "slug": "el-vado",
      "nombre": "EL VADO",
      "lat": 41.00408,
      "lon": -3.3014,
      "capacidad_hm3": 56,
      "rio": "MADRID",
      "cuenca": "Tajo",
      "confederacion": "CHTajo",
      "municipio_presa": "Valdesotos",
      "provincia": "Guadalajara",
      "comunidad": "Castilla - La Mancha",
      "timezone": "Europe/Madrid",
      "saih": {
        "estacion": "E_13",
        "token": "%2F4ZGs%2B6M%2BZWfvq6%2FyxpbhZn%2FOCmkBjfsheg2dS1eUGU8orqImegp6jScTC0I8ZDysMgisQ6q%2FfnE6oNwbiRxX5CnVLCDHWUhi%2B%2BRGNqGjng%3D",
        "lat": 41.00408,
        "lon": -3.3014,
        "z_msnm": 925
      }
    },
    {
      "slug": "san-juan",
      "nombre": "Embalse de San Juan",
      "lat": 40.394,
      "lon": -4.378,
      "capacidad_hm3": 138,
      "rio": "Alberche",
      "cuenca": "Tajo",
      "confederacion": "CHTajo",
      "municipio_presa": "San Martín de Valdeiglesias",
      "provincia": "Madrid",
      "comunidad": "Madrid",
      "embalsesnet_id": 1178,
      "timezone": "Europe/Madrid",
      "saih": {
        "estacion": "E_19",
        "token": "%2F4ZGs%2B6M%2BZWfvq6%2FyxpbheTu%2BEYNwNRj98K%2BA%2B5o840%2BuxXinbSE0hNYqU6YGhef2c%2BejPpOBZD7EO8lD2xO6GQfFHTGoMYerlC6AwovtMM%3D",
        "lat": 40.37058,
        "lon": -4.31258,
        "z_msnm": 583
      },
      "avisos": [
        "Perímetro pescable: solo CAPTURA Y SUELTA obligatoria (Anexo X). Las especies exóticas invasoras deben retirarse, no se devuelven al agua (art. 25).",
        "Zona VEDADA: margen izquierda aguas abajo de la presa (primeros 500 m del río Alberche).",
        "Zona VEDADA en periodo de baño: zonas de baño de la playa del Muro (margen derecha) durante el periodo autorizado de baño."
      ]
    },
    {
      "slug": "entrepenas",
      "nombre": "ENTREPEÑAS",
      "lat": 40.49433,
      "lon": -2.74978,
      "capacidad_hm3": 813,
      "rio": "CABECERA",
      "cuenca": "Tajo",
      "confederacion": "CHTajo",
      "municipio_presa": "Sacedón",
      "provincia": "Guadalajara",
      "comunidad": "Castilla - La Mancha",
      "timezone": "Europe/Madrid",
      "saih": {
        "estacion": "E_01",
        "token": "%2F4ZGs%2B6M%2BZWfvq6%2FyxpbhYA8NJu8e1x9i61t5Z6nOsxQ%2BsfTZf1HVar0cWRb16Dtq6XFoDlNRyG7%2F2gl2XS4cjmzn4F4gTtsmI2mXLADarQ%3D",
        "lat": 40.49433,
        "lon": -2.74978,
        "z_msnm": 723
      }
    },
    {
      "slug": "finisterre",
      "nombre": "FINISTERRE",
      "lat": 39.64885,
      "lon": -3.65041,
      "capacidad_hm3": 133,
      "rio": "TAJO IZQUIERDA",
      "cuenca": "Tajo",
      "confederacion": "CHTajo",
      "municipio_presa": "Tembleque",
      "provincia": "Toledo",
      "comunidad": "Castilla - La Mancha",
      "timezone": "Europe/Madrid",
      "saih": {
        "estacion": "E_23",
        "token": "%2F4ZGs%2B6M%2BZWfvq6%2FyxpbhaXkRKJFuB24kcqdbjDg1GxI%2BggAbj1t0bxef5CmaeXUQ%2F4ACmZaLyTVasETt%2BXAQ33MJEdFoiKfjK%2FPMZnXD3M%3D",
        "lat": 39.64885,
        "lon": -3.65041,
        "z_msnm": 690
      }
    },
    {
      "slug": "gabriel-y-galan",
      "nombre": "GABRIEL Y GALÁN",
      "lat": 40.2213,
      "lon": -6.13308,
      "capacidad_hm3": 911,
      "rio": "ALAGÓN",
      "cuenca": "Tajo",
      "confederacion": "CHTajo",
      "municipio_presa": "Guijo de Granadilla",
      "provincia": "Cáceres",
      "comunidad": "Extremadura",
      "timezone": "Europe/Madrid",
      "saih": {
        "estacion": "E_36",
        "token": "%2F4ZGs%2B6M%2BZWfvq6%2FyxpbhQuN5kAtUexJNFXQU3Jz1UsWy6fQRS%2Fax7MLdKXtA5tkcRZnTYrxfEQv4rG173Tx047uWgOJ%2FqE%2FVIo9%2BV5lKDk%3D",
        "lat": 40.2213,
        "lon": -6.13308,
        "z_msnm": 388
      }
    },
    {
      "slug": "guadiloba-caceres",
      "nombre": "GUADILOBA - CACERES",
      "lat": 39.48587,
      "lon": -6.29865,
      "capacidad_hm3": 20,
      "rio": "BAJO TAJO",
      "cuenca": "Tajo",
      "confederacion": "CHTajo",
      "municipio_presa": "Cáceres",
      "provincia": "Cáceres",
      "comunidad": "Extremadura",
      "timezone": "Europe/Madrid",
      "saih": {
        "estacion": "E_44",
        "token": "%2F4ZGs%2B6M%2BZWfvq6%2FyxpbhUSLiobMVuOndooVqZRjpLxJiR%2FupvJbdUqum7zpG1W2bdvtR%2BNzJVzEFzmIyl8yJtf01ICXTL2usUyg6lsDMnE%3D",
        "lat": 39.48587,
        "lon": -6.29865,
        "z_msnm": 361
      }
    },
    {
      "slug": "guajaraz",
      "nombre": "GUAJARAZ",
      "lat": 39.79918,
      "lon": -4.08475,
      "capacidad_hm3": 18,
      "rio": "TAJO IZQUIERDA",
      "cuenca": "Tajo",
      "confederacion": "CHTajo",
      "municipio_presa": "Argés",
      "provincia": "Toledo",
      "comunidad": "Castilla - La Mancha",
      "timezone": "Europe/Madrid",
      "saih": {
        "estacion": "E_26",
        "token": "%2F4ZGs%2B6M%2BZWfvq6%2FyxpbhXz00VcI1VQ18LUh23kSnA36OZhkJny6jmrb2YDIwdeBp3OxI7McgwUxL7lcjGKwZBtYkZjR8OlB9h80PPxHAEU%3D",
        "lat": 39.79918,
        "lon": -4.08475,
        "z_msnm": 608
      }
    },
    {
      "slug": "guijo-de-granadilla",
      "nombre": "GUIJO DE GRANADILLA",
      "lat": 40.1801,
      "lon": -6.14209,
      "capacidad_hm3": 13,
      "rio": "ALAGÓN",
      "cuenca": "Tajo",
      "confederacion": "CHTajo",
      "municipio_presa": "Guijo de Granadilla",
      "provincia": "Cáceres",
      "comunidad": "Extremadura",
      "timezone": "Europe/Madrid",
      "saih": {
        "estacion": "E_37",
        "token": "%2F4ZGs%2B6M%2BZWfvq6%2Fyxpbhb%2B9K6hGmWtZReEOcibAMdXhqCiRMw8iDcqu7wUSROizJI%2Bti%2FjeQEPTS6mhjIgANiRfZEWvYIadTQH6rhQlJuQ%3D",
        "lat": 40.1801,
        "lon": -6.14209,
        "z_msnm": 332
      }
    },
    {
      "slug": "jerte-plasencia",
      "nombre": "JERTE - PLASENCIA",
      "lat": 40.06194,
      "lon": -6.04477,
      "capacidad_hm3": 59,
      "rio": "ALAGÓN",
      "cuenca": "Tajo",
      "confederacion": "CHTajo",
      "municipio_presa": "Plasencia",
      "provincia": "Cáceres",
      "comunidad": "Extremadura",
      "timezone": "Europe/Madrid",
      "saih": {
        "estacion": "E_40",
        "token": "%2F4ZGs%2B6M%2BZWfvq6%2FyxpbhYbmbcLyvXSI3cInMM9QUZ9uHaOwmZZ91Jp0kdZHWRFzyyB6oM7y0StglCry2ilcDY9pqQIEqGfOFo67PLOd9pw%3D",
        "lat": 40.06194,
        "lon": -6.04477,
        "z_msnm": 373
      }
    },
    {
      "slug": "la-tajera",
      "nombre": "LA TAJERA",
      "lat": 40.83919,
      "lon": -2.6191,
      "capacidad_hm3": 59,
      "rio": "TAJUÑA",
      "cuenca": "Tajo",
      "confederacion": "CHTajo",
      "municipio_presa": "Cifuentes",
      "provincia": "Guadalajara",
      "comunidad": "Castilla - La Mancha",
      "timezone": "Europe/Madrid",
      "saih": {
        "estacion": "E_12",
        "token": "%2F4ZGs%2B6M%2BZWfvq6%2FyxpbhbEOtzLf7jwBnGb9VjdrKkxas6h2VbhJp4XAaN6j9E28efinJIgLozwhhpJ74Yv%2FrYiEWc8SjNHwvt6tstgyy0w%3D",
        "lat": 40.83919,
        "lon": -2.6191,
        "z_msnm": 964
      }
    },
    {
      "slug": "molino-de-chincha",
      "nombre": "MOLINO DE CHINCHA",
      "lat": 40.55395,
      "lon": -2.17727,
      "capacidad_hm3": 7,
      "rio": "CABECERA",
      "cuenca": "Tajo",
      "confederacion": "CHTajo",
      "municipio_presa": "Cañizares",
      "provincia": "Cuenca",
      "comunidad": "Castilla - La Mancha",
      "timezone": "Europe/Madrid",
      "saih": {
        "estacion": "E_02",
        "token": "%2F4ZGs%2B6M%2BZWfvq6%2FyxpbhcA1YQuabhNktcfZqs%2FMWPIX6kpYO0TJxqvsUJ9Pwv10pVffvGAxyxcSoGjbT32SfwxLK5%2BLgZBHBOHMqMEI5Jk%3D",
        "lat": 40.55395,
        "lon": -2.17727,
        "z_msnm": 920
      }
    },
    {
      "slug": "navalcan",
      "nombre": "Navalcán",
      "lat": 40.0479,
      "lon": -5.1442,
      "capacidad_hm3": 34,
      "rio": "TIÉTAR",
      "cuenca": "Tajo",
      "confederacion": "CHTajo",
      "municipio_presa": "Navalcán",
      "provincia": "Toledo",
      "comunidad": "Castilla - La Mancha",
      "timezone": "Europe/Madrid",
      "saih": {
        "estacion": "E_32",
        "token": "%2F4ZGs%2B6M%2BZWfvq6%2FyxpbhREruCMVCH36xsmH9J7iKfRLxw8EOlWyIS1yv2EQBqH%2BdlFXoN1UF8s3h9m6dZ7WBBnIh0FQL2%2FHgVBYVc9wnCw%3D",
        "lat": 40.0479,
        "lon": -5.1442,
        "z_msnm": 372
      }
    },
    {
      "slug": "navalmoral-de-la-mata",
      "nombre": "Navalmoral de la Mata",
      "lat": 40.06275,
      "lon": -5.61534,
      "capacidad_hm3": 3,
      "rio": "TIÉTAR",
      "cuenca": "Tajo",
      "confederacion": "CHTajo",
      "municipio_presa": "Casatejada",
      "provincia": "Cáceres",
      "comunidad": "Extremadura",
      "timezone": "Europe/Madrid",
      "saih": {
        "estacion": "E_50",
        "token": "%2F4ZGs%2B6M%2BZWfvq6%2FyxpbhdMCyODTgL8SsJaPer57VMExuVjIcTTW8oFf68tAnUbXCqf9Oyk7ce%2FuYdweb9NnEydQeA1G%2B8ShzZIbcGR82%2Bs%3D",
        "lat": 40.06275,
        "lon": -5.61534,
        "z_msnm": 357
      }
    },
    {
      "slug": "navamuno",
      "nombre": "NAVAMUÑO",
      "lat": 40.34685,
      "lon": -5.77276,
      "capacidad_hm3": 14,
      "rio": "ALAGÓN",
      "cuenca": "Tajo",
      "confederacion": "CHTajo",
      "municipio_presa": "Candelario",
      "provincia": "Salamanca",
      "comunidad": "Castilla y León",
      "timezone": "Europe/Madrid",
      "saih": {
        "estacion": "E_35",
        "token": "%2F4ZGs%2B6M%2BZWfvq6%2FyxpbhV1CwYdAJ3MfJ7lr2L9p2DJX%2B8jdx3yKVCqMvGZ9jW8SovjPeJN%2Fo0yjcao0fAIr9ND9nRisilguWHHcXMzUO34%3D",
        "lat": 40.34685,
        "lon": -5.77276,
        "z_msnm": 1244
      }
    },
    {
      "slug": "pajarero",
      "nombre": "PAJARERO",
      "lat": 40.31104,
      "lon": -4.55999,
      "capacidad_hm3": 1,
      "rio": "ALBERCHE",
      "cuenca": "Tajo",
      "confederacion": "CHTajo",
      "municipio_presa": "Casillas",
      "provincia": "Ávila",
      "comunidad": "Castilla y León",
      "timezone": "Europe/Madrid",
      "saih": {
        "estacion": "E_53",
        "token": "%2F4ZGs%2B6M%2BZWfvq6%2FyxpbhYLXe7QTPelEba659cLVE9MU0QBSJ12tAplJNWmnS8OTcZeTGIwdQnoxfJAY%2BAWg%2FaRM1nczfi%2BW%2B2sKKJGzJo8%3D",
        "lat": 40.31104,
        "lon": -4.55999,
        "z_msnm": 763
      }
    },
    {
      "slug": "palmaces",
      "nombre": "PALMACES",
      "lat": 41.05045,
      "lon": -2.93997,
      "capacidad_hm3": 31,
      "rio": "HENARES",
      "cuenca": "Tajo",
      "confederacion": "CHTajo",
      "municipio_presa": "Pálmaces de Jadraque",
      "provincia": "Guadalajara",
      "comunidad": "Castilla - La Mancha",
      "timezone": "Europe/Madrid",
      "saih": {
        "estacion": "E_08",
        "token": "%2F4ZGs%2B6M%2BZWfvq6%2FyxpbhcO5pdipq5%2FLFWoiWMVewojBHPSv8QwrXypXlc5g4lxe56yuzWC0a%2BkqwpUOwWKWs58S%2BvvxkHCVzFtNW70BYIg%3D",
        "lat": 41.05045,
        "lon": -2.93997,
        "z_msnm": 886
      }
    },
    {
      "slug": "picadas",
      "nombre": "PICADAS",
      "lat": 40.33392,
      "lon": -4.24831,
      "capacidad_hm3": 15,
      "rio": "ALBERCHE",
      "cuenca": "Tajo",
      "confederacion": "CHTajo",
      "municipio_presa": "Navas del Rey",
      "provincia": "Madrid",
      "comunidad": "Madrid",
      "timezone": "Europe/Madrid",
      "saih": {
        "estacion": "E_20",
        "token": "%2F4ZGs%2B6M%2BZWfvq6%2FyxpbhUbyiWpBZtAmuCcvf1l5H6GrcF6OPvzzgTo6K05HD4gwfa9kkVw%2BMi%2B8JZ6qbDm0cIPwjhHtpvE447V1rIPQRTM%3D",
        "lat": 40.33392,
        "lon": -4.24831,
        "z_msnm": 520
      }
    },
    {
      "slug": "portaje",
      "nombre": "PORTAJE",
      "lat": 39.88892,
      "lon": -6.54417,
      "capacidad_hm3": 23,
      "rio": "BAJO TAJO",
      "cuenca": "Tajo",
      "confederacion": "CHTajo",
      "municipio_presa": "Torrejoncillo",
      "provincia": "Cáceres",
      "comunidad": "Extremadura",
      "timezone": "Europe/Madrid",
      "saih": {
        "estacion": "E_34",
        "token": "%2F4ZGs%2B6M%2BZWfvq6%2FyxpbhU74E89QMg9ESW%2F8duz%2BSAWx7MVr9q6rmrSb5WAH474jwN7KNJn8TF0r1WfZFF7vSQ29xIPZKkvqQ7n7BQqIZAY%3D",
        "lat": 39.88892,
        "lon": -6.54417,
        "z_msnm": 305
      }
    },
    {
      "slug": "pozo-de-los-ramos",
      "nombre": "POZO DE LOS RAMOS",
      "lat": 41.02551,
      "lon": -3.20111,
      "capacidad_hm3": 1,
      "rio": "HENARES",
      "cuenca": "Tajo",
      "confederacion": "CHTajo",
      "municipio_presa": "Tamajón",
      "provincia": "Guadalajara",
      "comunidad": "Castilla - La Mancha",
      "timezone": "Europe/Madrid",
      "saih": {
        "estacion": "E_10",
        "token": "%2F4ZGs%2B6M%2BZWfvq6%2FyxpbhVf3hpqKe8hU6lN%2BHi6pDl7UdBK0aulitvGnyu%2B5Rdb6haZ6gyG4a8Pq76wWFq%2FjqMpATAa%2FJ7EMJlcWGkB8lTg%3D",
        "lat": 41.02551,
        "lon": -3.20111,
        "z_msnm": 902
      }
    },
    {
      "slug": "rivera-de-gata",
      "nombre": "RIVERA DE GATA",
      "lat": 40.1349,
      "lon": -6.63007,
      "capacidad_hm3": 49,
      "rio": "ÁRRAGO",
      "cuenca": "Tajo",
      "confederacion": "CHTajo",
      "municipio_presa": "Gata",
      "provincia": "Cáceres",
      "comunidad": "Extremadura",
      "timezone": "Europe/Madrid",
      "saih": {
        "estacion": "E_43",
        "token": "%2F4ZGs%2B6M%2BZWfvq6%2FyxpbhW98dLdZD3ph%2B2mn7vFiwbt7zX7CRANpbuuEkpNi2LpUH77i0ok22dnqnu6g%2FgMatm3Rwuao0QOCirVrLCeuUJQ%3D",
        "lat": 40.1349,
        "lon": -6.63007,
        "z_msnm": 346
      }
    },
    {
      "slug": "rosarito",
      "nombre": "ROSARITO",
      "lat": 40.1089,
      "lon": -5.32434,
      "capacidad_hm3": 82,
      "rio": "TIÉTAR",
      "cuenca": "Tajo",
      "confederacion": "CHTajo",
      "municipio_presa": "Candeleda",
      "provincia": "Toledo",
      "comunidad": "Castilla - La Mancha",
      "timezone": "Europe/Madrid",
      "saih": {
        "estacion": "E_33",
        "token": "%2F4ZGs%2B6M%2BZWfvq6%2FyxpbhWxGa%2FpflPOl3HYHNirIgMFK2fF3rm0%2FkW6BywO2yyCcV6YQEainIMhYX9k3%2FzL5wRqWspXDZgcuXI%2FzApYgFtM%3D",
        "lat": 40.1089,
        "lon": -5.32434,
        "z_msnm": 309
      }
    },
    {
      "slug": "salor",
      "nombre": "SALOR",
      "lat": 39.36549,
      "lon": -6.30401,
      "capacidad_hm3": 14,
      "rio": "BAJO TAJO",
      "cuenca": "Tajo",
      "confederacion": "CHTajo",
      "municipio_presa": "Cáceres",
      "provincia": "Cáceres",
      "comunidad": "Extremadura",
      "timezone": "Europe/Madrid",
      "saih": {
        "estacion": "E_46",
        "token": "%2F4ZGs%2B6M%2BZWfvq6%2FyxpbhdH0I2q2kzdjwPppwi2tcU%2FG661IeYXhRiAIdjoZfpDhdHyxZk6oKH1vAnnm4jIee2JU7cBDOJmh3Xr5qSD46FE%3D",
        "lat": 39.36549,
        "lon": -6.30401,
        "z_msnm": 398
      }
    },
    {
      "slug": "santillana",
      "nombre": "SANTILLANA",
      "lat": 40.711,
      "lon": -3.8213,
      "capacidad_hm3": 91,
      "rio": "MADRID",
      "cuenca": "Tajo",
      "confederacion": "CHTajo",
      "municipio_presa": "Manzanares el Real",
      "provincia": "Madrid",
      "comunidad": "Madrid",
      "timezone": "Europe/Madrid",
      "saih": {
        "estacion": "E_15",
        "token": "%2F4ZGs%2B6M%2BZWfvq6%2FyxpbhYvABBB073jLgBTVFkSBzTf4FRstDk90KX3lUup2kPE4EaGfEaG4wKSoPtG4bIStoygdHtjocNVJxAN%2BqDsBnGA%3D",
        "lat": 40.711,
        "lon": -3.8213,
        "z_msnm": 897
      }
    },
    {
      "slug": "valdajos",
      "nombre": "VALDAJOS",
      "lat": 40.04278,
      "lon": -3.32141,
      "capacidad_hm3": 0,
      "rio": "CABECERA",
      "cuenca": "Tajo",
      "confederacion": "CHTajo",
      "municipio_presa": "Villarrubia de Santiago",
      "provincia": "Toledo",
      "comunidad": "Castilla - La Mancha",
      "timezone": "Europe/Madrid",
      "saih": {
        "estacion": "E_07",
        "token": "%2F4ZGs%2B6M%2BZWfvq6%2Fyxpbhc%2BbHZWBYV1%2FbFRjO4KAJRed7o7AYKN7jk%2FBbeqI3YkK8AFrPAv%2BQfDMHE9XNDZvYgMs656EwFROBajgOGtVKhE%3D",
        "lat": 40.04278,
        "lon": -3.32141,
        "z_msnm": 524
      }
    },
    {
      "slug": "valdecanas",
      "nombre": "VALDECAÑAS",
      "lat": 39.77898,
      "lon": -5.61229,
      "capacidad_hm3": 1446,
      "rio": "BAJO TAJO",
      "cuenca": "Tajo",
      "confederacion": "CHTajo",
      "municipio_presa": "Belvís de Monroy",
      "provincia": "Cáceres",
      "comunidad": "Extremadura",
      "timezone": "Europe/Madrid",
      "saih": {
        "estacion": "E_30",
        "token": "%2F4ZGs%2B6M%2BZWfvq6%2FyxpbhRbL1CNEIbuK7AkKt76YY71Zcvp594UKgIaMsTnXX9TBFurisXeWN00A68ovVDtuuDXXrRyFMO27EhDRtzYs%2FI4%3D",
        "lat": 39.77898,
        "lon": -5.61229,
        "z_msnm": 317
      }
    },
    {
      "slug": "valdeobispo",
      "nombre": "VALDEOBISPO",
      "lat": 40.09884,
      "lon": -6.24985,
      "capacidad_hm3": 53,
      "rio": "ALAGÓN",
      "cuenca": "Tajo",
      "confederacion": "CHTajo",
      "municipio_presa": "Valdeobispo",
      "provincia": "Cáceres",
      "comunidad": "Extremadura",
      "timezone": "Europe/Madrid",
      "saih": {
        "estacion": "E_39",
        "token": "%2F4ZGs%2B6M%2BZWfvq6%2FyxpbhUMBY0QU2GTCwSIiqxRmsYOFz6lDk0bQrbMYV7pYJcAOgzAp%2FKzUS3f5X5tTwRaEyxkyleGVPABFIj%2F8KLZHnFk%3D",
        "lat": 40.09884,
        "lon": -6.24985,
        "z_msnm": 312
      }
    },
    {
      "slug": "valmayor",
      "nombre": "VALMAYOR",
      "lat": 40.54125,
      "lon": -4.04554,
      "capacidad_hm3": 124,
      "rio": "MADRID",
      "cuenca": "Tajo",
      "confederacion": "CHTajo",
      "municipio_presa": "Valdemorillo",
      "provincia": "Madrid",
      "comunidad": "Madrid",
      "timezone": "Europe/Madrid",
      "saih": {
        "estacion": "E_16",
        "token": "%2F4ZGs%2B6M%2BZWfvq6%2FyxpbhfPnq6zu5eUvoJJsmy34n7XdWU%2FTeoehom4BKKnB5tx0DGby0SC%2F%2BkP0pNWZzBEeQj8mPGUVMp%2ByIuhSlFMNf6w%3D",
        "lat": 40.54125,
        "lon": -4.04554,
        "z_msnm": 834
      }
    },
    {
      "slug": "zorita",
      "nombre": "ZORITA",
      "lat": 40.34609,
      "lon": -2.89767,
      "capacidad_hm3": 3,
      "rio": "CABECERA",
      "cuenca": "Tajo",
      "confederacion": "CHTajo",
      "municipio_presa": "Zorita de los Canes",
      "provincia": "Guadalajara",
      "comunidad": "Castilla - La Mancha",
      "timezone": "Europe/Madrid",
      "saih": {
        "estacion": "E_05",
        "token": "%2F4ZGs%2B6M%2BZWfvq6%2FyxpbhTkHvpjhZEBvpuhEv7u%2FbleacbesK%2Fz22Qbz5F1edFoOEMUUSR2OLmhmepeVdAG4QJHuQTOBDol5MpeKNhhPRss%3D",
        "lat": 40.34609,
        "lon": -2.89767,
        "z_msnm": 602
      }
    }
  ]
}
